[
  {
    "id": "tc-1",
    "name": "臺中市西區大勇國民小學",
    "site": "403台中市西區忠明南路515號",
    "lat": 24.135702324267374,
    "lng": 120.65749840609206
  },
  {
    "id": "tc-2",
    "name": "臺中市西區忠孝國民小學",
    "site": "403台中市西區三民路一段171號",
    "lat": 24.1415,
    "lng": 120.6753
  },
  {
    "id": "tc-3",
    "name": "臺中市西區大同國民小學",
    "site": "403台中市西區自由路一段138號",
    "lat": 24.1402,
    "lng": 120.6759
  },
  {
    "id": "tc-4",
    "name": "臺中市西區忠明國民小學",
    "site": "403台中市西區臺灣大道二段556號",
    "lat": 24.1578,
    "lng": 120.6664
  },
  {
    "id": "tc-5",
    "name": "臺中市西區中正國民小學",
    "site": "403台中市西區英才路423號",
    "lat": 24.1505,
    "lng": 120.6669
  },
  {
    "id": "tc-6",
    "name": "臺中市北區太平國民小學",
    "site": "404台中市北區太平路74號",
    "lat": 24.1462,
    "lng": 120.6847
  },
  {
    "id": "tc-7",
    "name": "臺中市中區光復國民小學",
    "site": "400台中市中區三民路二段148號",
    "lat": 24.141,
    "lng": 120.6835
  },
  {
    "id": "tc-8",
    "name": "臺中市北區國立臺中教育大學附設實驗國民小學",
    "site": "404台中市北區民權路220號",
    "lat": 24.1445,
    "lng": 120.683
  },
  {
    "id": "tc-9",
    "name": "臺中市北區賴厝國民小學",
    "site": "404台中市北區賴厝街1號",
    "lat": 24.1632,
    "lng": 120.6841
  },
  {
    "id": "tc-10",
    "name": "臺中市南區和平國民小學",
    "site": "402台中市南區和平街12號",
    "lat": 24.1234,
    "lng": 120.6789
  },
  {
    "id": "tc-11",
    "name": "臺中市東區東光國民小學",
    "site": "401台中市東區自由路四段300號",
    "lat": 24.1367,
    "lng": 120.6975
  },
  {
    "id": "tc-12",
    "name": "臺中市南屯區南屯國民小學",
    "site": "408台中市南屯區南屯路二段150號",
    "lat": 24.1439,
    "lng": 120.6421
  },
  {
    "id": "tc-13",
    "name": "臺中市北屯區北屯國民小學",
    "site": "406台中市北屯區北屯路370號",
    "lat": 24.1756,
    "lng": 120.6852
  },
  {
    "id": "tc-14",
    "name": "臺中市西屯區西屯國民小學",
    "site": "407台中市西屯區西屯路三段200號",
    "lat": 24.1812,
    "lng": 120.6428
  },
  {
    "id": "tc-15",
    "name": "臺中市南區樹義國民小學",
    "site": "402台中市南區樹義路100號",
    "lat": 24.1215,
    "lng": 120.6793
  },
  {
    "id": "tc-16",
    "name": "臺中市東區東英國民小學",
    "site": "401台中市東區十甲路200號",
    "lat": 24.136,
    "lng": 120.7123
  },
  {
    "id": "tc-17",
    "name": "臺中市北屯區四張犁國民小學",
    "site": "406台中市北屯區四張犁路110號",
    "lat": 24.1803,
    "lng": 120.6956
  },
  {
    "id": "tc-18",
    "name": "臺中市南屯區大墩國民小學",
    "site": "408台中市南屯區大墩十二街198號",
    "lat": 24.1508,
    "lng": 120.6482
  },
  {
    "id": "tc-19",
    "name": "臺中市西屯區惠文國民小學",
    "site": "407台中市西屯區河南路二段290號",
    "lat": 24.1687,
    "lng": 120.6429
  },
  {
    "id": "tc-20",
    "name": "臺中市南區積善國民小學",
    "site": "402台中市南區積善街88號",
    "lat": 24.1169,
    "lng": 120.6831
  }
]
